City_ID,City,Country,Lat,Lng,Max Temp,Humidity,Cloudiness,Wind Speed
0,kapaa,US,22.0752,-159.319,79.12,88,20,13.8
1,jibuti,DJ,11.5,42.5,77.68,64,4,13.71
2,lyubashivka,UA,47.8372,30.2598,55.06,78,90,14.34
3,saint-philippe,RE,-21.3585,55.7679,72.99,83,44,10.02
4,upernavik,GL,72.7868,-56.1549,29.17,79,100,4.52
5,punta arenas,CL,-53.15,-70.9167,57.31,47,0,21.85
6,rikitea,PF,-23.1203,-134.9692,72.14,81,90,13.47
7,atar,MR,20.5169,-13.0499,98.91,8,1,8.34
8,broome,US,42.2506,-75.833,65.7,59,0,6.91
9,souillac,MU,-20.5167,57.5167,73.78,83,75,6.91
10,hambantota,LK,6.1241,81.1185,79.52,77,98,15.52
11,los llanos de aridane,ES,28.6585,-17.9182,71.35,78,40,5.75
12,atuona,PF,-9.8,-139.0333,75.33,80,17,15.55
13,rabo de peixe,PT,37.8,-25.5833,65.71,92,40,10.36
14,busselton,AU,-33.65,115.3333,55.26,90,97,8.37
15,bredasdorp,ZA,-34.5322,20.0403,64.11,83,67,11.72
16,sinnamary,GF,5.3833,-52.95,87.58,65,88,13.51
17,kudahuvadhoo,MV,2.6708,72.8944,81.91,78,20,14.14
18,new norfolk,AU,-42.7826,147.0587,51.3,77,98,1.99
19,la libertad,EC,-2.2333,-80.9,71.26,83,100,11.5
20,cidreira,BR,-30.1811,-50.2056,70.36,67,45,5.59
21,victoria,HK,22.2855,114.1577,78.85,73,96,8.01
22,sao joao da barra,BR,-21.6403,-41.0511,77.36,72,94,11.61
23,norman wells,CA,65.282,-126.8329,24.84,86,75,2.3
24,carnarvon,AU,-24.8667,113.6333,69.4,64,26,18.41
25,nemuro,JP,43.3236,145.575,47.66,83,100,14.74
26,mataura,NZ,-46.1927,168.8643,50.65,96,100,7.45
27,cabo san lucas,MX,22.8909,-109.9124,88.18,52,54,8.01
28,jardim,BR,-21.4803,-56.1381,88.84,35,0,2.82
29,severo-kurilsk,RU,50.6789,156.125,37.08,98,100,7.85
30,puerto ayora,EC,-0.7393,-90.3518,75.16,89,86,8.01
31,castro,BR,-24.7911,-50.0119,75.49,51,5,7.25
32,jamestown,US,42.097,-79.2353,69.53,30,0,5.75
33,ushuaia,AR,-54.8,-68.3,53.26,32,75,29.93
34,bonavista,CA,48.6499,-53.1147,57.13,68,0,13.2
35,albany,US,42.6001,-73.9662,62.28,58,100,3.0
36,luangwa,ZM,-15.6167,30.4167,85.73,28,13,3.56
37,talas,TR,38.6908,35.5538,45.27,57,0,2.3
38,bethel,US,41.3712,-73.414,62.55,62,0,3.44
39,vaini,TO,-21.2,-175.2,71.76,78,20,10.36
40,chinsali,ZM,-10.5414,32.0816,81.28,26,93,11.43
41,cape town,ZA,-33.9258,18.4232,70.21,76,20,23.02
42,araceli,PH,10.5529,119.9913,81.0,82,99,7.27
43,balikpapan,ID,-1.2675,116.8289,79.79,83,40,8.05
44,khatanga,RU,71.9667,102.5,11.97,91,84,11.74
45,moron,AR,-34.6534,-58.6198,67.95,64,12,9.84
46,dunedin,NZ,-45.8742,170.5036,54.88,64,100,8.95
47,vestmannaeyjar,IS,63.4427,-20.2734,41.99,93,75,19.57
48,port alfred,ZA,-33.5906,26.891,66.18,89,100,3.0
49,wilmington,US,34.2257,-77.9447,71.94,60,0,11.5
50,yashkul,RU,46.1711,45.3435,49.37,46,47,8.12
51,namatanai,PG,-3.6667,152.4333,78.1,78,82,0.4
52,chokurdakh,RU,70.6333,147.9167,3.76,96,99,9.22
53,muros,ES,42.7762,-9.0603,62.83,83,57,17.34
54,dryden,CA,49.7833,-92.7503,53.89,71,0,6.91
55,wyndham,US,37.6985,-77.6125,63.75,76,100,4.61
56,surgut,RU,61.25,73.4167,30.38,74,0,13.42
57,salisbury,GB,51.0693,-1.7957,57.43,92,20,13.8
58,mizdah,LY,31.4451,12.9801,69.93,35,0,2.68
59,mapimi,MX,25.8167,-103.85,76.44,33,96,3.2
60,saint-francois,FR,46.4154,3.9054,72.84,46,0,9.22
61,saldanha,ZA,-33.0117,17.9442,69.85,87,88,24.9
62,bluff,NZ,-46.6,168.3333,48.4,89,100,14.88
63,kaitangata,NZ,-46.2817,169.8464,52.66,86,100,14.34
64,olafsvik,IS,64.8945,-23.7142,42.69,82,90,15.23
65,kundian,PK,32.4587,71.4775,75.27,24,0,3.36
66,vostok,RU,46.4856,135.8833,25.2,96,20,1.25
67,hermanus,ZA,-34.4187,19.2345,67.8,80,12,17.2
68,mar del plata,AR,-38.0023,-57.5575,62.94,76,20,20.0
69,camacha,PT,33.0833,-16.3333,67.42,56,20,6.91
70,lorengau,PG,-2.0226,147.2712,80.87,67,73,3.87
71,pevek,RU,69.7008,170.3133,16.05,95,100,6.17
72,hithadhoo,MV,-0.6,73.0833,82.2,70,31,4.76
73,nikolskoye,RU,59.7035,30.7861,42.69,86,100,7.11
74,ponta do sol,PT,32.6667,-17.1,74.01,65,99,4.9
75,togul,RU,53.465,85.9128,34.47,84,99,18.07
76,kunda,IN,25.7167,81.5167,71.65,57,0,3.38
77,margate,GB,51.3813,1.3862,59.31,89,100,8.01
78,mildura,AU,-34.2,142.15,62.56,100,100,5.75
79,tarbagatay,RU,51.4803,107.3602,22.53,69,19,2.46
80,saskylakh,RU,71.9167,114.0833,11.34,98,85,6.96
81,gaya,IN,24.7833,85.0,71.51,83,20,0.0
82,barrow,US,71.2906,-156.7887,21.22,86,100,24.16
83,new philadelphia,US,40.4898,-81.4457,72.81,49,0,3.44
84,arraial do cabo,BR,-22.9661,-42.0278,73.29,76,53,12.57
85,camacari,BR,-12.6975,-38.3242,86.45,55,86,11.16
86,kieta,PG,-6.2167,155.6333,77.79,84,52,0.96
87,nuuk,GL,64.1835,-51.7216,41.61,81,100,17.27
88,siderno,IT,38.2779,16.302,74.34,72,57,5.61
89,manokwari,ID,-0.8667,134.0833,78.55,78,96,4.56
90,chemal,RU,51.4111,86.005,33.01,81,73,2.84
91,thompson,CA,55.7435,-97.8558,33.96,75,75,5.75
92,conde,BR,-7.2597,-34.9075,83.14,61,88,12.71
93,kavieng,PG,-2.5744,150.7967,80.1,70,21,2.15
94,cockburn town,TC,21.4612,-71.1419,82.22,68,98,10.83
95,broken hill,AU,-31.95,141.4333,57.36,95,67,1.59
96,mirnyy,RU,62.5353,113.9611,32.23,100,100,8.99
97,hamilton,US,39.1834,-84.5333,78.4,47,0,13.8
98,ribeira grande,PT,38.5167,-28.7,68.4,68,20,12.66
99,flinders,AU,-34.5833,150.8552,63.18,93,100,5.99
100,ndele,CF,8.4109,20.6473,75.24,69,76,4.79
101,ambilobe,MG,-13.2,49.05,77.04,66,73,3.62
102,verkhnevilyuysk,RU,63.4453,120.3167,29.91,83,100,10.96
103,shestakovo,RU,56.4915,103.96,46.04,73,100,9.98
104,namibe,AO,-15.1961,12.1522,74.03,83,40,11.5
105,westerville,US,40.1262,-82.9291,75.61,53,0,5.75
106,quelimane,MZ,-17.8786,36.8883,80.55,74,0,13.8
107,pangody,RU,65.85,74.4859,27.75,76,94,14.76
108,paamiut,GL,61.994,-49.6678,36.36,98,100,12.39
109,kodiak,US,57.79,-152.4072,40.51,60,0,9.22
110,klaksvik,FO,62.2266,-6.589,45.52,85,100,19.64
111,kavaratti,IN,10.5669,72.642,81.84,74,98,1.1
112,sambava,MG,-14.2667,50.1667,72.43,84,11,4.83
113,butaritari,KI,3.0707,172.7902,80.55,75,92,6.8
114,tual,ID,-5.6667,132.75,83.37,72,95,4.76
115,mahebourg,MU,-20.4081,57.7,73.69,83,75,6.91
116,bengkulu,ID,-3.8004,102.2655,76.71,90,100,3.62
117,hayden,US,47.766,-116.7866,43.56,86,100,4.61
118,talnakh,RU,69.4865,88.3972,25.21,96,100,8.63
119,narsaq,GL,60.9167,-46.05,37.62,98,100,7.09
120,petropavlovsk-kamchatskiy,RU,53.0452,158.6483,23.59,68,75,8.95
121,gairo,IT,39.8497,9.5047,61.81,75,2,2.73
122,kamakwie,SL,9.5,-12.2333,83.53,78,18,2.77
123,takoradi,GH,4.8845,-1.7554,80.82,77,35,8.77
124,san felipe,VE,10.3399,-68.7425,88.25,60,54,1.66
125,east london,ZA,-33.0153,27.9116,67.14,82,0,9.22
126,inta,RU,66.0317,60.1659,32.43,96,100,22.84
127,lompoc,US,34.6391,-120.4579,70.79,54,0,12.66
128,bima,ID,-8.4667,118.7167,78.84,90,56,2.82
129,hobart,AU,-42.8794,147.3294,51.66,73,100,8.05
130,varhaug,NO,58.6147,5.6457,55.85,88,2,9.35
131,kyra,RU,49.5776,111.9753,32.23,61,3,1.77
132,kiunga,PG,-6.1219,141.2906,72.45,99,79,1.72
133,ahipara,NZ,-35.1667,173.1667,50.2,87,1,2.89
134,upata,VE,8.0086,-62.3989,90.19,67,87,4.63
135,salalah,OM,17.0151,54.0924,80.69,74,0,4.61
136,kutum,SD,14.2,24.6667,80.38,19,8,14.29
137,kruisfontein,ZA,-34.0033,24.7314,67.89,90,100,4.23
138,shimoda,JP,34.6667,138.95,62.1,80,60,8.9
139,chuy,UY,-33.6971,-53.4616,63.7,79,88,14.32
140,torbay,CA,47.6666,-52.7314,63.75,70,20,17.27
141,paidha,UG,2.4167,30.9855,63.21,86,19,5.91
142,tuktoyaktuk,CA,69.4541,-133.0374,10.4,92,75,8.05
143,casper,US,42.8666,-106.3131,38.71,90,100,4.61
144,karangampel,ID,-6.4622,108.4519,81.63,76,100,0.92
145,santo domingo,DO,18.5001,-69.9886,89.04,77,29,4.0
146,kilindoni,TZ,-7.9139,39.6668,77.5,77,18,11.7
147,altensteig,DE,48.5833,8.6,67.1,80,88,5.46
148,dikson,RU,73.5069,80.5464,25.77,88,100,9.89
149,san quintin,MX,30.4833,-115.95,66.69,76,96,12.64
150,tateyama,JP,34.9833,139.8667,64.09,78,62,17.13
151,mandalgovi,MN,45.7625,106.2708,40.28,37,0,8.75
152,beruwala,LK,6.4788,79.9828,77.56,88,100,5.37
153,kalabo,ZM,-14.97,22.6814,82.22,29,95,3.6
154,grindavik,IS,63.8424,-22.4338,41.47,93,75,19.57
155,nantucket,US,41.2835,-70.0995,60.91,88,100,8.05
156,mubende,UG,0.5606,31.39,61.99,98,91,1.3
157,nanortalik,GL,60.1432,-45.2371,37.4,99,100,8.48
158,tiksi,RU,71.6872,128.8694,21.69,81,99,13.47
159,makat,KZ,47.6469,53.3463,46.8,45,100,7.87
160,chaihe,CN,44.7667,129.7,27.97,90,66,2.13
161,bairiki,KI,1.3292,172.9752,78.8,83,40,0.0
162,naryan-mar,RU,67.6713,53.087,32.5,98,79,22.57
163,grand gaube,MU,-20.0064,57.6608,73.8,77,29,3.0
164,mayumba,GA,-3.432,10.6554,78.66,86,92,7.25
165,trat,TH,12.5,102.5,76.14,91,40,1.28
166,taoudenni,ML,22.6783,-3.9836,95.2,9,26,8.77
167,beringovskiy,RU,63.05,179.3167,22.59,80,88,10.8
168,chara,RU,56.9064,118.2631,25.54,71,100,1.34
169,mehamn,NO,71.0357,27.8492,39.11,87,75,12.66
170,airai,TL,-8.9266,125.4092,62.22,86,88,1.34
171,avarua,CK,-21.2078,-159.775,75.25,94,75,11.5
172,aklavik,CA,68.2191,-135.0107,17.6,86,100,4.61
173,yuty,PY,-26.6,-56.25,81.01,52,0,5.46
174,santa maria,BR,-29.6842,-53.8069,71.35,44,0,8.16
175,placerville,US,38.7296,-120.7986,57.54,39,0,1.01
176,sikasso,ML,10.9167,-7.0,86.94,51,99,3.04
177,alekseyevsk,RU,57.8406,108.3492,45.93,61,100,12.77
178,maragogi,BR,-9.0122,-35.2225,81.77,70,94,11.99
179,ballina,AU,-28.8667,153.5667,67.01,99,100,10.54
180,port macquarie,AU,-31.4333,152.9167,62.89,95,100,13.89
181,clyde river,CA,70.4692,-68.5914,25.03,93,100,13.8
182,hualmay,PE,-11.0964,-77.6139,67.39,69,89,11.27
183,bagdarin,RU,54.4333,113.6,25.57,76,94,1.21
184,paracuru,BR,-3.41,-39.0306,81.1,59,50,13.96
185,motygino,RU,58.1831,94.7592,32.54,83,97,13.22
186,siirt,TR,37.9326,41.9403,59.18,55,0,0.76
187,codrington,AU,-38.2667,141.9667,53.78,92,100,16.22
188,stykkisholmur,IS,65.0757,-22.7297,40.1,81,84,6.11
189,lebu,CL,-37.6167,-73.65,54.77,60,2,9.19
190,serra,BR,-20.1286,-40.3078,73.45,91,100,5.77
191,puerto del rosario,ES,28.5004,-13.8627,74.95,78,20,8.05
192,teahupoo,PF,-17.8333,-149.2667,71.56,78,74,8.03
193,pandan,PH,14.0453,124.1694,80.22,84,62,6.58
194,yellowknife,CA,62.456,-114.3525,25.32,80,75,9.22
195,ekhabi,RU,53.5102,142.9671,26.87,68,75,5.95
196,tukrah,LY,32.5341,20.5791,71.37,66,5,10.83
197,sidi ali,DZ,36.0998,0.4206,76.41,36,98,1.19
198,hasaki,JP,35.7333,140.8333,60.22,77,74,26.55
199,tuatapere,NZ,-46.1333,167.6833,48.07,96,100,12.95
200,kheralu,IN,23.8833,72.6167,76.66,29,0,3.83
201,sovetskiy,RU,61.3614,63.5842,32.65,68,100,14.88
202,iskateley,RU,67.6803,53.1512,32.4,98,80,22.44
203,katsuura,JP,35.1333,140.3,66.18,77,78,18.19
204,valpacos,PT,41.6075,-7.3109,60.17,70,58,12.66
205,la ronge,CA,55.1001,-105.2842,37.65,81,100,6.91
206,hilo,US,19.7297,-155.09,73.62,87,100,9.22
207,banyo,CM,6.75,11.8167,67.64,95,99,1.57
208,ostrovnoy,RU,68.0531,39.5131,35.89,90,99,14.29
209,mayo,US,38.8876,-76.5119,66.61,74,100,10.36
210,nchelenge,ZM,-9.3451,28.734,80.53,51,64,1.32
211,agadez,NE,19.75,10.25,80.47,20,23,6.38
212,tasiilaq,GL,65.6145,-37.6368,32.16,95,100,4.97
213,carauari,BR,-4.8828,-66.8958,74.26,99,100,2.59
214,havre-saint-pierre,CA,50.2334,-63.5986,53.96,71,0,9.22
215,marfino,RU,55.7028,37.3822,43.09,86,100,4.47
216,qaanaaq,GL,77.484,-69.3632,22.6,96,100,1.14
217,barao de melgaco,BR,-16.1944,-55.9675,90.36,51,98,4.21
218,clarence town,AU,-32.5833,151.7833,64.94,97,100,3.71
219,sao raimundo nonato,BR,-9.0153,-42.6994,95.02,30,56,11.39
220,igarka,RU,67.4667,86.5833,27.03,94,100,12.1
221,turmalina,BR,-17.2856,-42.73,68.72,90,94,2.77
222,port lincoln,AU,-34.7333,135.8667,56.14,83,99,17.63
223,leningradskiy,RU,69.3833,178.4167,21.11,95,100,8.3
224,cumana,VE,10.4635,-64.1775,85.93,70,71,8.81
225,ancud,CL,-41.8697,-73.8203,49.78,78,100,18.28
226,johi,PK,26.6921,67.6133,83.73,23,0,0.81
227,amapa,BR,1.0,-52.0,96.35,35,94,5.64
228,trinidad,BO,-14.8333,-64.9,85.98,66,40,5.75
229,saint anthony,US,45.0205,-93.218,73.65,59,0,18.41
230,linqing,CN,36.8456,115.7117,54.91,38,10,5.5
231,presque isle,US,46.6811,-68.0159,68.29,46,0,4.61
232,santa rosa,PH,14.3122,121.1114,82.38,89,36,4.9
233,benjamin aceval,PY,-24.9667,-57.5667,86.59,36,0,6.76
234,conakry,GN,9.538,-13.6773,86.07,66,75,9.22
235,praia da vitoria,PT,38.7333,-27.0667,66.76,77,40,22.79
236,shache,CN,38.4167,77.2406,56.14,24,86,5.17
237,bandarbeyla,SO,9.4942,50.8122,78.78,80,7,2.91
238,temba,ZA,-25.3803,28.2631,76.1,39,71,15.12
239,izazi,TZ,-7.2,35.7333,81.82,41,44,6.13
240,husavik,IS,66.0449,-17.3389,33.53,77,98,10.58
241,trairi,BR,-3.2778,-39.2689,86.38,57,53,14.03
242,kiama,AU,-34.6833,150.8667,63.37,95,100,1.99
243,tevriz,RU,57.509,72.4042,28.9,73,18,8.46
244,antofagasta,CL,-23.65,-70.4,61.88,62,6,8.99
245,cayenne,GF,4.9333,-52.3333,89.64,62,75,12.66
246,gravdal,NO,68.1214,13.5031,39.58,56,100,11.7
247,poykovskiy,RU,61.2333,73.3333,30.49,74,0,13.42
248,rio gallegos,AR,-51.6226,-69.2181,68.05,24,75,20.71
249,lakes entrance,AU,-37.8811,147.981,56.16,94,100,16.02
250,te anau,NZ,-45.4167,167.7167,51.17,97,100,3.42
251,alofi,NU,-19.0595,-169.9187,73.29,100,100,3.44
252,brae,GB,60.3964,-1.353,51.51,94,100,15.9
253,puerto colombia,CO,10.9878,-74.9547,84.29,72,98,4.25
254,kalmunai,LK,7.4167,81.8167,78.48,78,99,6.2
255,san cristobal,VE,7.7669,-72.225,78.98,55,100,3.56
256,ilulissat,GL,69.2167,-51.1,33.82,86,75,2.3
257,le francois,MQ,14.6156,-60.9031,89.8,62,20,10.36
258,helsinki,FI,60.1695,24.9355,43.11,78,20,10.36
259,georgetown,MY,5.4112,100.3354,83.95,76,40,5.75
260,praia,CV,14.9215,-23.5087,82.94,65,20,18.41
261,pisco,PE,-13.7,-76.2167,66.25,72,0,10.36
262,san miguel,SV,13.4833,-88.1833,89.26,66,20,4.61
263,bose,IT,45.4612,8.0137,62.29,90,100,1.68
264,vavatenina,MG,-17.4667,49.2,69.53,91,52,1.01
265,vanimo,PG,-2.6741,141.3028,77.23,87,97,0.72
266,sola,VU,-13.8833,167.55,76.87,83,100,6.73
267,loukhi,RU,66.0764,33.0381,35.91,80,85,15.35
268,sangamner,IN,19.5667,74.2167,67.69,67,0,2.82
269,longyearbyen,SJ,78.2186,15.6401,22.84,63,40,2.3
270,ndola,ZM,-12.9587,28.6366,74.48,33,74,4.14
271,isangel,VU,-19.55,169.2667,73.02,82,100,17.38
272,bambous virieux,MU,-20.3428,57.7575,73.65,83,75,6.91
273,coquimbo,CL,-29.9533,-71.3436,58.73,82,100,8.05
274,selikhino,RU,50.3672,137.4996,31.15,72,16,4.25
275,kasongo-lunda,CD,-6.4667,16.8167,79.54,68,98,3.0
276,mount isa,AU,-20.7333,139.5,81.97,40,38,10.98
277,iqaluit,CA,63.7506,-68.5145,31.73,80,75,10.36
278,marsa matruh,EG,31.3525,27.2453,70.02,57,18,10.4
279,port hardy,CA,50.6996,-127.4199,42.98,93,100,4.61
280,adrar,MR,20.5022,-10.0711,92.25,11,0,8.93
281,marau,BR,-28.4492,-52.2,73.15,56,5,10.45
282,fort nelson,CA,58.8053,-122.7002,24.94,88,100,13.8
283,liaoyang,CN,41.2719,123.1731,30.52,49,0,1.16
284,barpathar,IN,26.3,93.8667,71.56,83,100,1.03
285,saint george,US,37.1041,-113.5841,52.95,40,0,16.11
286,maningrida,AU,-12.0667,134.2667,82.83,77,25,9.08
287,wahpeton,US,46.2652,-96.6059,70.52,52,0,21.85
288,hami,CN,42.8,93.45,55.17,26,0,5.57
289,barabai,ID,-2.5833,115.3833,74.32,97,73,1.88
290,goderich,CA,43.7501,-81.7165,71.92,53,97,8.05
291,jiayuguan,CN,39.8167,98.3,46.81,29,5,4.38
292,padang,ID,-0.9492,100.3543,75.25,95,100,2.21
293,provideniya,RU,64.3833,-173.3,28.87,87,100,4.99
294,znamenskoye,RU,57.1281,73.8282,29.64,75,38,8.59
295,serebryanyy bor,RU,56.8,124.8,2.77,99,93,3.51
296,toora-khem,RU,52.4675,96.11,33.1,84,100,17.69
297,vasai,IN,19.47,72.8,84.29,52,1,6.89
298,yulara,AU,-25.2406,130.9889,67.46,48,20,14.2
299,berlevag,NO,70.8578,29.0864,39.15,81,75,27.63
300,west bay,KY,19.3667,-81.4167,87.87,70,20,12.66
301,makakilo city,US,21.3469,-158.0858,73.62,83,20,5.75
302,bathsheba,BB,13.2167,-59.5167,88.41,70,40,12.66
303,curillo,CO,1.0333,-75.9191,83.93,81,97,3.78
304,cap-aux-meules,CA,47.3821,-61.8597,59.05,67,75,10.36
305,nouadhibou,MR,20.931,-17.0347,71.58,83,46,20.71
306,kedrovyy,RU,56.1667,91.8167,30.87,88,84,14.76
307,bozhou,CN,33.8772,115.7703,59.63,34,33,3.0
308,nizwa,OM,22.9333,57.5333,78.42,30,0,8.34
309,jiangyou,CN,31.7667,104.7167,64.94,76,100,2.33
310,iquique,CL,-20.2208,-70.1431,62.64,63,5,6.6
311,hoquiam,US,46.9809,-123.8893,53.92,87,40,8.05
312,baruun-urt,MN,46.6806,113.2792,34.56,47,8,8.08
313,coihaique,CL,-45.5752,-72.0662,56.01,66,75,13.8
314,aksu,CN,41.1231,80.2644,55.29,31,99,1.12
315,baracoa,CU,20.3467,-74.4958,84.87,68,100,7.0
316,shingu,JP,33.7333,135.9833,58.21,78,72,5.79
317,derzhavinsk,KZ,51.1,66.3167,32.49,57,0,8.08
318,surt,LY,31.2089,16.5887,71.58,61,0,7.11
319,tomatlan,MX,19.9333,-105.25,82.31,79,100,2.37
320,santa cruz,BO,-17.8,-63.1667,90.86,43,75,9.22
321,vandavasi,IN,12.5,79.6167,74.86,68,53,7.29
322,itarema,BR,-2.9248,-39.9167,85.01,63,71,16.89
323,luau,AO,-10.7073,22.2247,69.35,83,82,3.78
324,chicama,PE,-7.8447,-79.1469,61.34,56,91,10.6
325,skibotn,NO,69.3913,20.2679,32.67,96,96,8.97
326,karratha,AU,-20.7377,116.8463,71.92,61,0,17.45
327,veraval,IN,20.9,70.3667,79.45,51,1,3.85
328,yuxia,CN,34.0615,108.6291,69.71,48,88,1.3
329,kismayo,SO,-0.3582,42.5454,78.08,85,46,13.2
330,coromandel,BR,-18.4733,-47.2003,82.58,42,96,11.32
331,cherskiy,RU,68.75,161.3,11.19,95,100,10.38
332,chimbote,PE,-9.0853,-78.5783,66.79,70,89,11.1
333,khazar,RU,41.9974,48.3332,57.33,84,87,9.86
334,sao jose da coroa grande,BR,-8.8978,-35.1478,81.19,70,93,11.18
335,gimli,CA,50.6336,-96.9907,46.42,87,100,16.11
336,livramento,BR,-3.0254,-60.1803,91.9,49,99,3.85
337,acapulco,MX,16.8634,-99.8901,85.82,70,20,5.75
338,wattegama,LK,6.7989,81.4808,75.22,91,100,2.33
339,faanui,PF,-16.4833,-151.75,78.98,75,80,11.07
340,seddon,AU,-37.8068,144.8916,58.3,86,100,8.99
341,banjar,ID,-8.19,114.9675,77.4,90,82,3.51
342,vokhtoga,RU,58.8147,41.0461,41.38,87,100,9.53
343,port blair,IN,11.6667,92.75,80.64,83,75,5.75
344,sitka,US,57.0531,-135.33,46.29,61,100,20.71
345,aleksandrov gay,RU,50.147,48.5704,41.95,61,24,8.23
346,lata,PT,40.1629,-8.3327,63.81,88,71,5.57
347,amga,RU,60.8953,131.9608,14.13,98,96,3.09
348,ceres,US,37.5949,-120.9577,61.12,46,0,16.11
349,peleduy,RU,59.6289,112.7406,39.06,78,100,12.03
350,ternate,ID,0.8,127.4,82.15,78,75,4.21
351,dalvik,IS,65.9702,-18.5286,33.73,76,99,6.85
352,rantepao,ID,-2.9701,119.8978,67.32,96,96,2.37
353,pringsewu,ID,-5.3582,104.9744,73.6,95,100,3.2
354,jumla,NP,29.2747,82.1838,43.63,82,8,4.16
355,cap malheureux,MU,-19.9842,57.6142,72.46,76,31,4.0
356,egvekinot,RU,66.3167,-179.1667,12.04,93,99,2.73
357,riyadh,SA,24.6877,46.7219,80.74,15,0,6.31
358,yabrud,SY,33.9674,36.6574,58.06,66,1,1.52
359,los andes,CL,-32.8337,-70.5983,79.02,33,4,8.61
360,yerbogachen,RU,61.2767,108.0108,44.1,79,90,17.09
361,camopi,GF,3.1655,-52.3158,90.66,47,94,3.6
362,balkanabat,TM,39.5108,54.3671,63.1,48,81,5.44
363,san policarpo,PH,12.1791,125.5072,80.65,83,72,8.01
364,aripuana,BR,-9.1667,-60.6333,94.6,38,91,2.73
365,lebanon,US,36.2081,-86.2911,78.12,38,0,14.97
366,pudozh,RU,61.8099,36.5345,39.02,75,99,7.76
367,ketchikan,US,55.3422,-131.6461,43.27,81,100,33.38
368,belaya gora,RU,68.5333,146.4167,-0.98,91,90,7.38
369,irtyshskiy,RU,58.3333,68.1333,29.93,66,48,13.76
370,pahrump,US,36.2083,-115.9839,57.49,23,9,11.01
371,santo tirso,PT,41.3426,-8.4775,64.09,90,98,9.84
372,santa vitoria do palmar,BR,-33.5189,-53.3681,63.88,80,70,14.7
373,heihe,CN,50.2441,127.4902,25.38,59,4,4.34
374,port elizabeth,ZA,-33.918,25.5701,69.1,88,20,6.91
375,fayaoue,NC,-20.65,166.5333,74.53,81,100,26.8
376,faya,SA,18.3851,42.4509,64.51,46,1,2.71
377,makaha,US,21.4694,-158.2175,75.06,73,75,5.75
378,severnyy-kospashskiy,RU,59.0925,57.8008,31.6,70,100,14.25
379,homer,US,59.6425,-151.5483,30.78,84,0,0.0
380,pocatello,US,42.8713,-112.4455,36.18,79,75,18.01
381,corner brook,CA,48.9667,-57.9484,59.16,60,32,9.98
382,hervey bay,AU,-25.2986,152.8535,68.02,93,27,4.0
383,bara,NG,10.3744,10.7288,84.83,50,30,6.15
384,santa isabel do rio negro,BR,-0.4139,-65.0192,93.85,47,81,5.01
385,zhanakorgan,KZ,43.9098,67.2495,45.81,53,1,10.65
386,kijang,KR,35.2442,129.2139,53.33,66,0,5.66
387,nakatsu,JP,33.5981,131.1883,62.49,81,9,10.78
388,seljord,NO,59.4894,8.634,47.66,96,86,2.62
389,ndende,GA,-2.4008,11.3581,75.18,95,99,2.8
390,srednekolymsk,RU,67.45,153.6833,-0.71,93,97,7.58
391,evensk,RU,61.95,159.2333,7.54,78,21,8.59
392,pizarro,CO,4.9533,-77.366,80.37,81,63,8.88
393,lagoa,PT,39.05,-27.9833,64.67,68,92,25.57
394,locri,IT,38.2414,16.2623,74.32,70,47,7.99
395,taksimo,RU,56.3444,114.8794,25.34,79,99,1.72
396,ust-nera,RU,64.5667,143.2,-8.45,100,83,4.34
397,ajdabiya,LY,30.7554,20.2263,70.45,59,0,14.67
398,boquete,PA,8.7833,-82.4333,71.2,78,98,2.57
399,nelson bay,AU,-32.7167,152.15,65.08,98,100,10.0
400,narrabri,AU,-30.3167,149.7833,63.52,86,60,1.01
401,sao miguel do araguaia,BR,-13.275,-50.1628,87.87,47,87,5.91
402,muisne,EC,0.6,-80.0333,75.76,81,100,11.72
403,mangrol,IN,21.1167,70.1167,80.53,56,0,1.52
404,perth,AU,-31.9333,115.8333,58.03,97,100,5.75
405,kunnamangalam,IN,11.3046,75.8777,74.03,93,19,2.62
406,kirkcudbright,GB,54.8383,-4.0491,56.1,96,100,8.1
407,engels,RU,51.5,46.1167,42.48,70,74,4.0
408,alcantara,BR,-2.4089,-44.4147,89.8,66,80,13.56
409,maceio,BR,-9.6658,-35.7353,81.12,71,92,13.0
410,komsomolskiy,UZ,40.4272,71.7189,50.72,81,100,2.3
411,buchen,DE,49.5239,9.3231,65.32,94,100,3.49
412,kovernino,RU,57.1253,43.8142,42.12,83,97,10.83
413,tilichiki,RU,60.4667,166.1,9.1,90,19,6.26
414,nunkini,MX,20.3333,-90.1833,87.39,35,9,5.03
415,lavrentiya,RU,65.5833,-171.0,31.17,86,95,1.81
416,santa cecilia,BR,-26.9608,-50.4269,72.82,40,3,6.78
417,toro,CO,4.6117,-76.0814,83.08,77,79,3.18
418,nyurba,RU,63.2842,118.3319,31.05,97,100,12.91
419,san pedro,PH,14.35,121.0167,81.63,85,20,2.3
420,caravelas,BR,-17.7125,-39.2481,81.54,66,72,11.3
421,hukuntsi,BW,-24.0,21.75,80.82,30,73,7.02
422,san patricio,US,28.017,-97.5169,87.66,56,100,21.32
423,ilinskiy,RU,55.619,38.1182,43.52,100,100,4.47
424,awbari,LY,26.5921,12.7805,69.19,20,0,9.66
425,vao,NC,-22.6667,167.4833,72.68,77,100,23.87
426,nur,PL,52.6683,22.3221,54.77,89,80,6.96
427,tandil,AR,-37.3217,-59.1332,64.69,29,57,12.21
428,pierre,US,44.3683,-100.351,63.52,67,0,24.0
429,paso de los toros,UY,-32.8167,-56.5167,71.38,45,0,6.98
430,khabary,RU,53.6259,79.5345,32.74,88,97,13.91
431,cristalina,BR,-16.7686,-47.6136,78.89,46,100,6.42
432,guerrero negro,MX,27.9769,-114.0611,73.15,52,97,11.48
433,keetmanshoop,NA,-26.5833,18.1333,82.35,28,85,6.35
434,ponta delgada,PT,37.7333,-25.6667,66.92,72,40,10.36
435,kaeo,NZ,-35.1,173.7833,45.32,94,1,3.49
436,vanavara,RU,60.34,102.2797,42.22,77,68,20.87
437,semey,KZ,50.4111,80.2275,35.55,60,19,7.7
438,corinto,GR,37.9407,22.9573,66.88,67,1,2.37
439,port-gentil,GA,-0.7193,8.7815,79.16,82,95,9.75
440,richards bay,ZA,-28.783,32.0377,70.79,90,53,4.34
441,marsh harbour,BS,26.5412,-77.0636,78.55,64,8,11.14
442,huarmey,PE,-10.0681,-78.1522,68.36,69,91,11.45
443,port moresby,PG,-9.4431,147.1797,75.15,85,68,3.65
444,balaghat,IN,21.8,80.1833,63.95,71,0,6.62
445,luderitz,NA,-26.6481,15.1594,63.18,78,79,17.85
446,male,MV,4.1748,73.5089,82.35,83,75,12.66
447,pacific grove,US,36.6177,-121.9166,62.38,73,0,5.99
448,eufaula,US,31.8913,-85.1455,74.32,34,0,0.0
449,hurricane,US,37.1753,-113.2899,52.02,28,15,11.63
450,ovsyanka,RU,55.9575,92.5519,33.22,80,96,15.43
451,davila,PH,18.4726,120.5763,80.22,86,69,14.05
452,ondjiva,AO,-17.0667,15.7333,80.17,39,49,4.29
453,belmonte,BR,-15.8631,-38.8828,80.62,70,38,11.12
454,bouna,CI,9.2667,-3.0,81.99,60,70,2.62
455,dingle,PH,10.9995,122.6711,76.19,92,79,5.41
456,pemberton,CA,50.3164,-122.8027,52.21,44,25,2.62
457,grand-lahou,CI,5.1367,-5.0242,78.57,84,79,7.56
458,koumac,NC,-20.5667,164.2833,72.27,92,100,6.44
459,niigata,JP,37.9022,139.0236,52.92,73,100,7.07
460,penzance,GB,50.1186,-5.5371,59.77,90,97,2.55
461,palana,RU,59.1167,159.9667,20.73,84,89,7.94
462,haines junction,CA,60.7522,-137.5108,31.95,69,100,10.36
463,nome,US,64.5011,-165.4064,39.27,93,100,17.27
464,molteno,ZA,-31.3968,26.3625,60.12,79,96,4.56
465,el carrizo,MX,24.0261,-106.8814,87.26,57,97,3.69
466,esperance,AU,-33.8667,121.9,56.39,67,80,16.11
467,yoichi,JP,43.2039,140.7703,44.92,81,47,7.92
468,alexandria,EG,31.2156,29.9553,73.0,64,8,14.05
469,yerofey pavlovich,RU,53.9667,121.9667,24.8,77,78,0.92
470,shahreza,IR,32.0339,51.8794,61.93,19,2,4.29
471,angoche,MZ,-16.2325,39.9086,77.29,79,0,15.84
472,morondava,MG,-20.2833,44.2833,78.87,73,2,12.21
473,boralday,KZ,43.3578,76.8594,47.17,86,100,6.31
474,hit,IQ,33.6416,42.8251,78.24,35,0,11.54
475,yelan,RU,50.949,43.7378,43.61,73,94,10.6
476,gladstone,AU,-23.85,151.25,69.73,94,100,4.61
477,shenjiamen,CN,29.9576,122.298,64.02,60,1,20.07
478,coahuayana,MX,18.7333,-103.6833,85.53,64,100,1.43
479,tiznit,MA,29.5833,-9.5,80.73,11,95,12.15
480,rocha,UY,-34.4833,-54.3333,63.68,71,94,11.45
481,maua,BR,-23.6678,-46.4614,79.45,71,42,11.18
482,aykhal,RU,66.0,111.5,27.54,97,100,8.97
483,moerai,PF,-22.4333,-151.3333,73.81,83,99,10.04
484,san matias,BO,-16.3667,-58.4,83.16,72,94,2.89
485,dombas,NO,62.0696,9.1235,33.96,89,80,3.2
486,fortuna,US,40.5982,-124.1573,54.93,81,20,8.05
487,aksay,RU,47.26,39.87,57.25,47,100,8.01
488,san rafael,AR,-34.6177,-68.3301,79.3,23,2,14.25
489,kupang,ID,-10.1667,123.5833,79.77,81,74,3.4
490,kraslava,LV,55.8951,27.168,47.57,92,99,6.78
491,pestretsy,RU,55.7531,49.6545,39.34,73,100,13.13
492,mala vyska,UA,48.6431,31.6366,51.06,84,100,13.96
493,bowen,AU,-20.0167,148.2333,77.85,80,21,10.33
494,damietta,EG,31.4165,31.8133,74.12,63,8,12.71
495,dosso,NE,13.049,3.1937,88.27,20,13,6.8
496,linxia,CN,35.6003,103.2064,52.83,68,100,1.32
497,itaituba,BR,-4.2761,-55.9836,93.36,59,40,8.05
498,glens falls,US,43.3095,-73.644,66.69,59,0,1.01
499,contamana,PE,-7.3333,-75.0167,79.9,90,100,1.41
500,lakeside,US,30.13,-81.7682,81.99,57,20,5.75
501,yamada,JP,39.4667,141.95,47.14,75,98,7.63
502,samarai,PG,-10.6167,150.6667,79.77,79,31,6.8
503,tahta,EG,26.7693,31.5021,74.17,30,0,8.32
504,buchanan,LR,5.8808,-10.0467,78.82,84,98,5.75
505,yar-sale,RU,66.8333,70.8333,29.5,75,98,9.31
506,liuzhou,CN,24.3126,109.3892,73.94,30,4,8.63
507,pitimbu,BR,-7.4706,-34.8086,86.59,70,66,9.84
508,sao filipe,CV,14.8961,-24.4956,80.51,68,1,12.97
509,kirkuk,IQ,35.4681,44.3922,75.61,32,4,8.43
510,avera,US,33.194,-82.5271,76.55,42,13,5.46
511,sistranda,NO,63.7256,8.834,35.56,71,53,17.87
512,ban phai,TH,16.06,102.731,79.02,71,6,5.53
513,aksarka,RU,66.5606,67.7975,28.51,94,100,10.2
514,salvador,SV,13.8333,-88.9167,83.05,63,11,1.41
515,benguela,AO,-12.5763,13.4055,77.27,78,27,5.41
516,kasane,BW,-17.8167,25.15,87.89,20,0,1.14
517,maracacume,BR,-2.0428,-45.9592,87.42,56,99,5.91
518,weihai,CN,37.5017,122.1136,55.29,47,0,14.03
519,luena,AO,-11.7833,19.9167,71.83,57,65,4.45
520,ryotsu,JP,38.0833,138.4333,53.69,67,98,8.48
521,zaltan,LY,32.947,11.8665,75.06,51,0,10.42
522,pong,TH,19.1493,100.2752,71.42,96,52,1.74
523,armidale,AU,-30.5167,151.65,53.73,98,100,1.95
524,mitchell,US,43.7094,-98.0298,73.11,53,0,27.63
525,cururupu,BR,-1.8283,-44.8683,85.53,60,94,7.87
526,nhulunbuy,AU,-12.2333,136.7667,82.6,78,35,12.48
527,kahului,US,20.8947,-156.47,79.84,73,20,9.22
528,necochea,AR,-38.5473,-58.7368,68.5,35,57,12.82
529,kenai,US,60.5544,-151.2583,36.14,100,0,0.0
530,oistins,BB,13.0667,-59.5333,87.89,70,40,12.66
531,xining,CN,36.6167,101.7667,47.73,64,100,2.06
532,vila franca do campo,PT,37.7167,-25.4333,66.61,76,100,14.16
533,vila velha,BR,-20.3297,-40.2925,75.15,91,100,2.3
534,mapiripan,CO,2.8892,-72.1256,85.77,74,91,5.53
535,deputatskiy,RU,69.3,139.9,-2.52,96,96,4.81
536,nakhon sawan,TH,15.7,100.0833,75.18,82,5,0.72
537,bodmin,GB,50.4715,-4.7243,55.36,88,20,10.36
538,jieshi,CN,22.8134,115.8257,72.59,78,99,20.0
539,tamandare,BR,-8.7597,-35.1047,81.5,69,93,10.42
540,palmer,US,42.1584,-72.3287,60.57,66,100,5.75
541,potosi,BO,-19.5836,-65.7531,58.82,25,26,14.38
542,naze,JP,28.3667,129.4833,68.92,67,1,19.24
543,zhangye,CN,38.9342,100.4517,48.18,34,38,2.51
544,orange,US,33.7,-117.7675,69.39,62,20,5.75
545,roebourne,AU,-20.7833,117.1333,73.0,56,0,16.82
546,zarubino,RU,42.63,131.0922,40.3,76,56,10.54
547,ulaanbaatar,MN,47.9077,106.8832,37.99,43,4,6.15
548,borogontsy,RU,62.6683,131.1683,12.4,96,99,6.69
549,san rafael del sur,NI,11.8485,-86.4384,86.97,62,8,9.62
550,geraldton,AU,-28.7667,114.6,63.25,76,69,17.13
551,carutapera,BR,-1.195,-46.02,86.41,60,69,12.19
552,bhadrak,IN,21.0633,86.5054,72.99,92,100,8.68
553,acarau,BR,-2.8856,-40.12,84.74,64,80,17.92
554,rumoi,JP,43.9344,141.6428,41.67,93,100,9.48
555,la palma,US,33.8464,-118.0467,70.61,66,20,5.75
556,camocim,BR,-2.9022,-40.8411,84.72,66,75,17.31
557,conceicao da barra,BR,-18.5933,-39.7322,81.23,67,85,9.33
558,kingston,JM,17.997,-76.7936,89.24,66,20,5.75
559,laguna,US,38.421,-121.4238,62.73,42,0,16.11
560,umba,RU,66.6871,34.3429,36.5,84,88,15.9
561,kununurra,AU,-15.7667,128.7333,92.48,34,40,6.58
562,kattivakkam,IN,13.2167,80.3167,82.49,61,41,12.3
563,svendborg,DK,55.0598,10.6068,53.85,90,88,13.53
564,arica,CL,-18.475,-70.3042,72.95,59,0,12.66
565,killybegs,IE,54.6333,-8.45,58.71,91,92,7.63
566,san buenaventura,MX,27.0833,-101.5333,83.48,39,0,0.0
567,saint-augustin,CA,51.226,-58.6502,57.81,46,44,16.8
568,bereznik,RU,62.8551,42.7072,36.27,87,76,8.1
569,le port,RE,-20.9373,55.2919,73.4,68,57,3.62
570,lodeynoye pole,RU,60.726,33.5531,41.16,85,100,7.36
571,krasnyy oktyabr,RU,56.1167,38.8833,40.82,95,100,5.28
572,xuddur,SO,4.1213,43.8894,80.31,56,88,4.36
573,sinop,TR,41.7711,34.8709,53.71,42,80,7.05
574,prachuap khiri khan,TH,12.2167,99.75,71.51,94,59,2.91
575,vardo,NO,70.3705,31.1107,39.18,70,75,24.16
576,farah,AF,32.5,62.5,66.72,31,0,3.33
577,comodoro rivadavia,AR,-45.8667,-67.5,71.46,14,0,24.16
578,bereda,ES,43.2686,-7.5406,60.42,86,97,10.29
579,zlobin,HR,45.2924,14.6541,58.3,91,75,3.44
580,idah,NG,7.1065,6.7342,79.97,74,100,3.36
581,pangnirtung,CA,66.1451,-65.7125,28.4,93,75,0.0
582,gorin,RU,51.1983,136.6669,28.99,63,88,1.05
583,fuxin,CN,42.0156,121.6589,42.01,42,4,2.42
584,ganassi,PH,7.8269,124.1034,68.45,94,100,1.79
585,merauke,ID,-8.4667,140.3333,79.41,81,63,1.86
586,kungurtug,RU,50.5994,97.5228,39.36,49,65,2.15
587,isla vista,US,34.4133,-119.861,71.02,52,0,1.99
588,kamaishi,JP,39.2667,141.8833,49.44,74,100,6.73
589,lixourion,GR,38.2019,20.4314,68.0,88,20,9.22
590,callaway,US,30.153,-85.5699,79.99,37,0,5.01
591,college,US,64.8569,-147.8028,30.2,94,100,0.0
592,skegness,GB,53.1436,0.3363,61.34,93,92,13.2
593,kirundo,BI,-2.5833,30.1667,67.5,58,92,2.04
594,shipunovo,RU,52.1582,82.2173,34.81,70,95,13.35
595,yumen,CN,40.2833,97.2,47.68,27,0,6.62
596,akhtanizovskaya,RU,45.32,37.1,61.27,74,100,24.18
597,christchurch,NZ,-43.5333,172.6333,55.6,52,69,10.36
598,lewiston,US,44.1003,-70.2148,65.91,63,0,0.0
599,mangrul pir,IN,20.3167,77.35,67.03,67,0,3.31
600,fukue,JP,32.6881,128.8419,66.07,65,58,19.26
601,sulur,IN,11.0333,77.1333,77.41,88,40,6.91
602,aras,ES,42.5617,-2.356,72.01,23,20,12.66
603,quilpue,CL,-33.045,-71.4494,59.13,67,40,9.22
604,jiazi,CN,22.8779,116.067,71.67,81,96,19.77
605,mbandaka,CD,0.0487,18.2603,78.55,76,96,1.52
606,qaqortoq,GL,60.7167,-46.0333,35.42,98,100,8.28
607,saint paul,US,44.9444,-93.0933,74.62,58,0,18.41
608,yablonovo,RU,50.8523,37.3574,45.75,95,100,10.22
609,khandyga,RU,62.6667,135.6,2.14,98,96,2.77
610,constitucion,CL,-35.3333,-72.4167,57.54,60,71,8.59
611,dolores,AR,-36.3132,-57.6792,67.89,41,29,13.69
612,rosarito,MX,32.3333,-117.0333,64.92,59,11,8.68
613,ixtapa,MX,20.7,-105.2,86.23,83,100,6.91
614,ucluelet,CA,48.9329,-125.5528,50.09,80,72,1.01
615,saryagash,KZ,41.4511,69.1701,51.76,75,100,3.96
616,calamar,CO,10.2511,-74.9146,86.04,69,94,4.32
617,kingman,US,35.1894,-114.053,59.18,35,0,11.5
618,kloulklubed,PW,7.0419,134.2556,84.27,73,100,13.06
619,troitskoye,RU,52.9821,84.6757,34.3,92,99,15.43
620,solnechnyy,RU,50.7214,136.6319,29.98,56,78,2.33
621,coos bay,US,43.3665,-124.2179,50.23,100,75,9.22
622,ukiah,US,39.1502,-123.2078,58.44,52,0,6.91
623,taltal,CL,-25.4,-70.4833,65.97,63,12,9.17
624,raudeberg,NO,61.9875,5.1352,46.87,13,100,3.2
625,kaniama,CD,-7.5667,24.1833,76.73,52,89,2.64
626,saint-pierre,RE,-21.3393,55.4781,73.08,73,0,4.61
627,wewak,PG,-3.5534,143.6268,78.06,84,99,1.99
628,bonnyville,CA,54.2668,-110.735,31.32,58,100,4.9
629,axim,GH,4.8699,-2.2405,78.85,84,61,6.8
630,poum,NC,-20.2333,164.0167,74.71,88,100,29.53
631,jalingo,NG,8.8833,11.3667,81.12,69,77,3.83
632,kayerkan,RU,69.3497,87.7602,24.53,100,99,6.26
633,cardston,CA,49.2,-113.3019,32.29,100,100,17.27
634,wamba,NG,8.9333,8.6,77.86,64,17,1.45
635,chimore,BO,-16.9833,-65.1333,95.0,28,91,4.29
636,caceres,ES,39.522,-6.3748,63.07,56,90,6.53
637,erenhot,CN,43.6475,111.9767,44.01,27,1,7.76
638,hofn,IS,64.2539,-15.2082,41.13,78,100,6.46
639,sortland,NO,68.6949,15.4162,33.1,68,99,8.39
640,sioux lookout,CA,50.1001,-91.917,55.47,67,20,9.22
641,oussouye,SN,12.485,-16.5469,89.78,75,37,6.31
642,chlorakas,CY,34.8042,32.4083,67.08,60,20,5.75
643,bauchi,NG,10.5,10.0,81.1,38,18,3.18
644,vagur,FO,61.4732,-6.8119,47.79,88,100,26.04
645,oudtshoorn,ZA,-33.5907,22.2014,61.16,81,97,7.11
646,jeremie,HT,18.65,-74.1167,84.67,66,100,3.83
647,bandundu,CD,-3.3167,17.3667,81.18,67,99,2.51
648,sao cristovao,BR,-11.0147,-37.2064,84.11,70,40,10.36
649,waynesville,US,35.4887,-82.9887,70.84,30,1,1.01
650,lagunas,PE,-5.2269,-75.6753,83.91,77,100,2.89
651,amasya,TR,40.6667,35.8333,56.88,28,93,3.31
652,bac lieu,VN,9.285,105.7244,78.15,82,99,2.28
653,salamiyah,SY,35.0113,37.0532,69.73,54,13,7.72
654,shadegan,IR,30.6497,48.6647,82.35,41,1,6.42
655,byron bay,AU,-28.65,153.6167,65.95,95,100,15.88
656,hammerfest,NO,70.6634,23.6821,37.85,93,75,10.36
657,bud,US,39.447,-86.1758,77.2,52,30,16.17
658,deming,US,32.2687,-107.7586,67.89,45,0,21.85
659,altay,CN,47.8667,88.1167,43.84,78,100,6.51
660,cortez,US,37.3489,-108.5859,40.03,87,100,13.8
661,robertson,US,36.5167,-86.8667,77.36,41,0,8.05
662,noshiro,JP,40.2039,140.0242,49.21,54,76,11.97
663,fenyeslitke,HU,48.2713,22.1001,54.57,82,65,6.96
664,portland,US,45.5234,-122.6762,52.66,87,75,7.0
665,canico,PT,32.6333,-16.85,73.71,70,20,5.75
666,tessalit,ML,20.1986,1.0114,81.88,14,97,11.05
667,xichang,CN,27.8964,102.2634,58.57,91,74,1.21
668,morehead,US,37.2711,-87.1764,77.86,43,0,11.5
669,nizhniy baskunchak,RU,48.2198,46.8311,44.37,55,14,8.88
670,prince rupert,CA,54.3161,-130.3201,46.09,81,100,43.73
671,moroni,KM,-11.7022,43.2551,75.94,79,25,1.05
672,hovd,MN,48.0056,91.6419,44.47,34,79,10.38
673,hamadan,IR,34.7992,48.5146,61.68,29,20,6.91
674,kushmurun,KZ,52.4503,64.6311,22.39,89,6,6.69
675,whitehorse,CA,60.7161,-135.0538,32.77,94,100,2.3
676,barra do corda,BR,-5.5,-45.25,98.69,31,95,4.05
677,edson,CA,53.5835,-116.4356,33.94,100,100,2.3
678,amahai,ID,-3.3333,128.9167,78.76,85,100,1.7
679,beira,MZ,-19.8436,34.8389,80.69,78,40,13.8
680,singaparna,ID,-7.3515,108.111,71.37,95,100,1.28
681,canutama,BR,-6.5339,-64.3831,88.25,66,99,4.23
682,etaples,FR,50.5219,1.6332,64.4,88,0,4.61
683,garissa,KE,-0.4536,39.6401,83.37,55,57,20.92
684,sile,TR,41.1754,29.6133,61.47,64,2,4.05
685,ahuimanu,US,21.4447,-157.8378,74.86,90,31,13.27
686,lanzhou,CN,36.0564,103.7922,56.91,65,98,0.87
687,tura,IN,25.5198,90.2201,69.39,86,97,3.89
688,yeppoon,AU,-23.1333,150.7333,73.18,86,89,0.22
689,mackay,AU,-21.15,149.2,74.68,90,48,9.84
690,russell,US,32.3502,-85.1999,74.91,28,0,3.44
691,sonoita,MX,31.85,-112.8333,71.74,49,25,14.67
692,nenjiang,CN,49.1833,125.2167,28.72,56,2,3.4
693,rimbey,CA,52.6334,-114.2353,34.63,72,88,0.85
694,ambulu,ID,-8.345,113.6058,76.93,91,95,2.08
695,biak,ID,-0.9131,122.8766,77.07,77,99,2.46
